[{"title": "Beautiful loft-like apartment ", "price": "$2500", "link": "http://newyork.craigslist.org/brk/sub/4699259212.html", "lat": -1, "lng": -1, "email": "qpqtx-4699259212@hous.craigslist.org"}, {"title": "Short Stay Room For Rent", "price": "$650", "link": "http://newyork.craigslist.org/brk/sub/4695239192.html", "lat": "40.700600", "lng": "-73.918000", "email": "pvpgt-4695239192@hous.craigslist.org"}, {"title": "Furnished Aparment - October to March", "price": "$1100", "link": "http://newyork.craigslist.org/brk/sub/4699199282.html", "lat": -1, "lng": -1, "email": "rqqkw-4699199282@hous.craigslist.org"}, {"title": "Fulton st brooklyn room for rent", "price": "$200", "link": "http://newyork.craigslist.org/brk/sub/4699193555.html", "lat": "40.681137", "lng": "-73.955666", "email": ""}, {"title": "Sublet Huge Sunny 6th floor 1bd with 160sqft terrace", "price": "$3650", "link": "http://newyork.craigslist.org/brk/sub/4684339473.html", "lat": "40.718493", "lng": "-73.964231", "email": "vxq9g-4684339473@hous.craigslist.org"}, {"title": "Available Unfurnished Room in 2 Bedroom Clinton Hill Apartment-$1195", "price": "$1195", "link": "http://newyork.craigslist.org/brk/sub/4695721097.html", "lat": "40.682379", "lng": "-73.961613", "email": "8gzpt-4695721097@hous.craigslist.org"}, {"title": "Park Slope 1 Br for Sublet", "price": "$2500", "link": "http://newyork.craigslist.org/brk/sub/4699201640.html", "lat": "40.666900", "lng": "-73.982800", "email": "sr252-4699201640@hous.craigslist.org"}, {"title": "Furnished Luxury Loft w/ Private Roof Deck, Terrace, Washer Dryer", "price": "$4500", "link": "http://newyork.craigslist.org/brk/sub/4687026607.html", "lat": "40.666900", "lng": "-73.982800", "email": "xvxwt-4687026607@hous.craigslist.org"}, {"title": "Greenpoint Room - short term", "price": "$900", "link": "http://newyork.craigslist.org/brk/sub/4699181704.html", "lat": "40.727200", "lng": "-73.949800", "email": "ctm9m-4699181704@hous.craigslist.org"}, {"title": "$1150, Williamsburg Marcy Ave JMZ, 9' x 11', Great room in amazing loc", "price": "$1150", "link": "http://newyork.craigslist.org/brk/sub/4699128143.html", "lat": "40.709169", "lng": "-73.960825", "email": "jnzjt-4699128143@hous.craigslist.org"}, {"title": "Music Consultant Private Loft wifi  ", "price": "$250", "link": "http://newyork.craigslist.org/brk/sub/4696075433.html", "lat": "40.678166", "lng": "-73.962229", "email": "nfkgs-4696075433@hous.craigslist.org"}, {"title": "ENY/Queens ", "price": "$200", "link": "http://newyork.craigslist.org/brk/sub/4699119130.html", "lat": -1, "lng": -1, "email": ""}, {"title": "Awesome sublet, best location!", "price": "$1600", "link": "http://newyork.craigslist.org/brk/sub/4695187984.html", "lat": "40.718624", "lng": "-73.957493", "email": "fqw7s-4695187984@hous.craigslist.org"}, {"title": "room brooklyn bed sty 2people", "price": "$200", "link": "http://newyork.craigslist.org/brk/sub/4699094471.html", "lat": "40.646700", "lng": "-73.957000", "email": ""}, {"title": "Furnished Room in 2BR Bushwick Apartment", "price": "$1000", "link": "http://newyork.craigslist.org/brk/sub/4699062654.html", "lat": "40.700548", "lng": "-73.917068", "email": "kfssp-4699062654@hous.craigslist.org"}, {"title": "Furnished Room in 2BR Bushwick Apartment", "price": "$1000", "link": "http://newyork.craigslist.org/brk/sub/4699055583.html", "lat": "40.700548", "lng": "-73.917068", "email": "csjbm-4699055583@hous.craigslist.org"}, {"title": "**Beautiful room in a great Location! All UTILITIES + INTERNET  INCL.*", "price": "$1220", "link": "http://newyork.craigslist.org/brk/sub/4699040413.html", "lat": "40.732324", "lng": "-73.954609", "email": "jbkvm-4699040413@hous.craigslist.org"}, {"title": "SHOWING TODAY - Excellent room for October", "price": "$700", "link": "http://newyork.craigslist.org/brk/sub/4699034862.html", "lat": "40.691035", "lng": "-73.959317", "email": "5fsmk-4699034862@hous.craigslist.org"}, {"title": "Sunny, quiet bedroom in 3 bed/1 bath, flexible start/end dates", "price": "$1000", "link": "http://newyork.craigslist.org/brk/sub/4699026340.html", "lat": "40.671557", "lng": "-73.950477", "email": "jb6vm-4699026340@hous.craigslist.org"}, {"title": "Prospect Park entire Apartment Oct 8th-18th", "price": "$750", "link": "http://newyork.craigslist.org/brk/sub/4685076826.html", "lat": "40.662036", "lng": "-73.960304", "email": "ws6mp-4685076826@hous.craigslist.org"}, {"title": "Sunny Luxury Fully Furnished Duplex Apartment", "price": "$4500", "link": "http://newyork.craigslist.org/brk/sub/4698992865.html", "lat": "40.726822", "lng": "-73.947544", "email": "b6kxk-4698992865@hous.craigslist.org"}, {"title": "Choose your FURNISHED SHORT TERM LOFT!", "price": "$3300", "link": "http://newyork.craigslist.org/brk/sub/4698939824.html", "lat": "40.709500", "lng": "-73.956300", "email": "h6dcg-4698939824@hous.craigslist.org"}, {"title": "Sunny private room available in Crown Heights", "price": "$800", "link": "http://newyork.craigslist.org/brk/sub/4698951825.html", "lat": "40.671704", "lng": "-73.933053", "email": "gjf9p-4698951825@hous.craigslist.org"}, {"title": "Monthly Room in a 2 BR HUGE Yard and Recording Studio Myrtle G Laundry", "price": "$1300", "link": "http://newyork.craigslist.org/brk/sub/4698915759.html", "lat": -1, "lng": -1, "email": "zkkz5-4698915759@hous.craigslist.org"}, {"title": "*** NO FEE *** Huge 1 BR, Modern kitchen Marble bath, W/D in Unit", "price": "$2750", "link": "http://newyork.craigslist.org/brk/sub/4672185828.html", "lat": "40.695990", "lng": "-73.983210", "email": "hjnbr-4672185828@hous.craigslist.org"}, {"title": "BEAUTIFUL, sunny, furnished, PRIME Brooklyn - NOV 1 - NOV 30 sublet", "price": "$2500", "link": "http://newyork.craigslist.org/brk/sub/4698905420.html", "lat": "40.687191", "lng": "-73.974616", "email": "pghcz-4698905420@hous.craigslist.org"}, {"title": "Furnished small Room", "price": "$190", "link": "http://newyork.craigslist.org/brk/sub/4698881311.html", "lat": "40.621852", "lng": "-73.974531", "email": "Sam2boca@yahoo.com"}, {"title": "Clinton Hill 2 bedroom furnished apartment from $3500/month (NY-12756)", "price": "$3500", "link": "http://newyork.craigslist.org/brk/sub/4698807542.html", "lat": -1, "lng": -1, "email": "g6bg6-4698807542@hous.craigslist.org"}, {"title": "Greenpoint Room avail Nov 1 (3 month minimum, possibility to renew!)", "price": "$905", "link": "http://newyork.craigslist.org/brk/sub/4698897853.html", "lat": "40.722120", "lng": "-73.948030", "email": "ntdgt-4698897853@hous.craigslist.org"}, {"title": "$850 per month / 1 b/room in 4 b/room apartment - VERY BRIGHT AND COSY", "price": "", "link": "http://newyork.craigslist.org/brk/sub/4698860438.html", "lat": -1, "lng": -1, "email": "dkktv-4698860438@hous.craigslist.org"}, {"title": "OCTOBER 1st ... beautiful loft! LARGE TREE HOUSE all inclusive", "price": "$1600", "link": "http://newyork.craigslist.org/brk/sub/4690310892.html", "lat": -1, "lng": -1, "email": "cmtw2-4690310892@hous.craigslist.org"}, {"title": "*WILLIAMSBURG CHARM!**__HOT SPOT!__NOV 1__*1 STOP TO NYC/10 MINS!**", "price": "$1399", "link": "http://newyork.craigslist.org/brk/sub/4698854847.html", "lat": "40.713175", "lng": "-73.964939", "email": "w9h39-4698854847@hous.craigslist.org"}, {"title": "Private 1br w full bathroom and backyard in a beautiful brownstone", "price": "$1000", "link": "http://newyork.craigslist.org/brk/sub/4698869773.html", "lat": "40.688157", "lng": "-73.953274", "email": "2skth-4698869773@hous.craigslist.org"}, {"title": "Brooklyn 1 bedroom furnished apartment from $1390/month (NY-15877)", "price": "$1390", "link": "http://newyork.craigslist.org/brk/sub/4698785478.html", "lat": -1, "lng": -1, "email": "2xbgp-4698785478@hous.craigslist.org"}, {"title": "PRIME Fort Greene, Beautifully furnished! NOV 1- NOV 30 SUBLET-1 BR", "price": "$2500", "link": "http://newyork.craigslist.org/brk/sub/4691987633.html", "lat": "40.687191", "lng": "-73.974616", "email": "jqckr-4691987633@hous.craigslist.org"}, {"title": "@@@ Large Bedroom In A Large Apartment Available October 1st @@@", "price": "$550", "link": "http://newyork.craigslist.org/brk/sub/4695587452.html", "lat": -1, "lng": -1, "email": "cpb9v-4695587452@hous.craigslist.org"}, {"title": "____Beautiful Spacious 1(ONE) Bedroom Apt.____", "price": "$465", "link": "http://newyork.craigslist.org/brk/sub/4695587927.html", "lat": -1, "lng": -1, "email": "hpcgh-4695587927@hous.craigslist.org"}, {"title": "Park Slope furnished 1bdrm Sublet $1,200 or $1,000", "price": "", "link": "http://newyork.craigslist.org/brk/sub/4698844476.html", "lat": -1, "lng": -1, "email": "peanutgirl118@aol.com"}, {"title": "LUX. RENOVATE 1BR. APARTMENT !from OCTOBER 20 ", "price": "", "link": "http://newyork.craigslist.org/brk/sub/4698826703.html", "lat": -1, "lng": -1, "email": "sxwf5-4698826703@hous.craigslist.org"}, {"title": "Room for a Couple in McKibbin Loft", "price": "$1200", "link": "http://newyork.craigslist.org/brk/sub/4698805914.html", "lat": "40.705516", "lng": "-73.938073", "email": "vbhff-4698805914@hous.craigslist.org"}, {"title": "Comfy guest room in Park Slope", "price": "$60", "link": "http://newyork.craigslist.org/brk/sub/4698796224.html", "lat": -1, "lng": -1, "email": "wpxj5-4698796224@hous.craigslist.org"}, {"title": "Cozy guest room in Park Slope", "price": "$55", "link": "http://newyork.craigslist.org/brk/sub/4698793591.html", "lat": -1, "lng": -1, "email": "wcz9j-4698793591@hous.craigslist.org"}, {"title": "Bedrooms avail", "price": "$720", "link": "http://newyork.craigslist.org/brk/sub/4691910934.html", "lat": "40.617900", "lng": "-73.985600", "email": ""}, {"title": "Room in Bed-Stuy apartment available - utilities incl", "price": "$940", "link": "http://newyork.craigslist.org/brk/sub/4698731438.html", "lat": "40.681519", "lng": "-73.919720", "email": "zcdng-4698731438@hous.craigslist.org"}, {"title": "share flat !", "price": "$1000", "link": "http://newyork.craigslist.org/brk/sub/4698729196.html", "lat": "40.703600", "lng": "-73.896100", "email": "pgtd5-4698729196@hous.craigslist.org"}, {"title": "sublet October 19 till December 11", "price": "$2700", "link": "http://newyork.craigslist.org/brk/sub/4651927274.html", "lat": "40.673380", "lng": "-73.952837", "email": "xs75d-4651927274@hous.craigslist.org"}, {"title": "Avenue Of The Americas, New York NY 10001", "price": "$70", "link": "http://newyork.craigslist.org/brk/sub/4690738707.html", "lat": -1, "lng": -1, "email": "9rmdm-4690738707@hous.craigslist.org"}, {"title": "Broadway, New York NY 10006", "price": "$50", "link": "http://newyork.craigslist.org/brk/sub/4690705179.html", "lat": -1, "lng": -1, "email": "8bwwk-4690705179@hous.craigslist.org"}, {"title": "Temporary Sublet Oct. 15 through Dec. 31st.", "price": "$1600", "link": "http://newyork.craigslist.org/brk/sub/4698661937.html", "lat": "40.673122", "lng": "-73.960709", "email": "djfhz-4698661937@hous.craigslist.org"}, {"title": "Cute Studio Brooklyn Heights", "price": "$1500", "link": "http://newyork.craigslist.org/brk/sub/4698636640.html", "lat": -1, "lng": -1, "email": "rwhvf-4698636640@hous.craigslist.org"}, {"title": "Temporary Room For Rent ", "price": "$800", "link": "http://newyork.craigslist.org/brk/sub/4698616717.html", "lat": -1, "lng": -1, "email": "8vbhp-4698616717@hous.craigslist.org"}, {"title": "Temporary room for rent ", "price": "$600", "link": "http://newyork.craigslist.org/brk/sub/4698582913.html", "lat": "40.639828", "lng": "-73.957860", "email": "6ds5t-4698582913@hous.craigslist.org"}, {"title": "SPACIOUS AND FURNISHED CLINTON HILL ROOM SUBLET", "price": "$1000", "link": "http://newyork.craigslist.org/brk/sub/4698534943.html", "lat": -1, "lng": -1, "email": "pc7dz-4698534943@hous.craigslist.org"}, {"title": "$750 Large beautiful furnished room ", "price": "", "link": "http://newyork.craigslist.org/brk/sub/4698533466.html", "lat": "40.667373", "lng": "-73.987804", "email": ""}, {"title": "Fantastic 1BR in huge 3 BR apartment ", "price": "$1650", "link": "http://newyork.craigslist.org/brk/sub/4698478128.html", "lat": "40.718941", "lng": "-73.956535", "email": "fnhg7-4698478128@hous.craigslist.org"}, {"title": "A huge room with park view for November", "price": "$1400", "link": "http://newyork.craigslist.org/brk/sub/4698485088.html", "lat": "40.654597", "lng": "-73.962021", "email": "x9ks3-4698485088@hous.craigslist.org"}, {"title": "Spacious 1 Bedroom for November & December", "price": "$2000", "link": "http://newyork.craigslist.org/brk/sub/4698482514.html", "lat": "40.654071", "lng": "-73.961759", "email": "t6fcr-4698482514@hous.craigslist.org"}, {"title": "1 family fully renovated 4 BR, prime location", "price": "$1750", "link": "http://newyork.craigslist.org/brk/sub/4667659087.html", "lat": "40.620500", "lng": "-73.923900", "email": "dvxpc-4667659087@hous.craigslist.org"}, {"title": "ROOM FOR RENT--avail now", "price": "", "link": "http://newyork.craigslist.org/brk/sub/4698388316.html", "lat": -1, "lng": -1, "email": "6fktn-4698388316@hous.craigslist.org"}, {"title": "$1650 bedroom apartment Greenpoint G ", "price": "$1650", "link": "http://newyork.craigslist.org/brk/sub/4698425924.html", "lat": "40.644178", "lng": "-73.813705", "email": "fmdf4-4698425924@hous.craigslist.org"}, {"title": "3 month rental, garden.", "price": "$2000", "link": "http://newyork.craigslist.org/brk/sub/4698420850.html", "lat": -1, "lng": -1, "email": ""}, {"title": "Furnished 2 BR Apt For Sublet in Park Slope For Loving Human Being", "price": "$2800", "link": "http://newyork.craigslist.org/brk/sub/4695231543.html", "lat": "40.666414", "lng": "-73.976934", "email": "r75wq-4695231543@hous.craigslist.org"}, {"title": "Brighton Beach Brooklyn New York!!", "price": "$77", "link": "http://newyork.craigslist.org/brk/sub/4685917176.html", "lat": "40.591598", "lng": "-73.960680", "email": "mxvnd-4685917176@hous.craigslist.org"}, {"title": "Cheap Luxury! Bayridge Brooklyn New York!! ", "price": "$35", "link": "http://newyork.craigslist.org/brk/sub/4685882086.html", "lat": "40.625100", "lng": "-74.030300", "email": "fgmbp-4685882086@hous.craigslist.org"}, {"title": "Need A Luxury Safe Stay? Carrol Gardens Brooklyn New York", "price": "$50", "link": "http://newyork.craigslist.org/brk/sub/4685901435.html", "lat": "40.671852", "lng": "-74.003242", "email": "2mfkd-4685901435@hous.craigslist.org"}, {"title": "Sunny two bedroom apt heart of Boreum hill", "price": "$2500", "link": "http://newyork.craigslist.org/brk/sub/4656441358.html", "lat": "40.681600", "lng": "-73.979800", "email": "77kz5-4656441358@hous.craigslist.org"}, {"title": "One room in 4 bedroom 1.5 Bath, Modern Apartment", "price": "$925", "link": "http://newyork.craigslist.org/brk/sub/4698238591.html", "lat": "40.671671", "lng": "-73.951721", "email": "mjxcq-4698238591@hous.craigslist.org"}, {"title": "Sun Drenched! Beautiful Brownstone Share ", "price": "$955", "link": "http://newyork.craigslist.org/brk/sub/4689463324.html", "lat": "40.679400", "lng": "-73.949600", "email": "pct5g-4689463324@hous.craigslist.org"}, {"title": "VERRY NICE AREA", "price": "$1800", "link": "http://newyork.craigslist.org/brk/sub/4698124683.html", "lat": "40.774789", "lng": "-73.988135", "email": "wgb8x-4698124683@hous.craigslist.org"}, {"title": "private apartment in the heart of Williamsburg", "price": "$8000", "link": "http://newyork.craigslist.org/brk/sub/4680117999.html", "lat": "40.712004", "lng": "-73.963480", "email": "n6kqx-4680117999@hous.craigslist.org"}, {"title": "NEW Penthouse in prime Williamsburg with private terrace and a view ", "price": "", "link": "http://newyork.craigslist.org/brk/sub/4677239041.html", "lat": "40.712004", "lng": "-73.963308", "email": "vrhvf-4677239041@hous.craigslist.org"}, {"title": "Room open in great apartment for Oct 15", "price": "$1150", "link": "http://newyork.craigslist.org/brk/sub/4698198295.html", "lat": "40.695990", "lng": "-73.983210", "email": "qvqjv-4698198295@hous.craigslist.org"}, {"title": "A VERY GOOD PLACE YOU WILL LIKE TO LIVE", "price": "$1600", "link": "http://newyork.craigslist.org/brk/sub/4698102826.html", "lat": "40.776300", "lng": "-73.952900", "email": "jsdqz-4698102826@hous.craigslist.org"}, {"title": "Broadway, New York NY 10006", "price": "$50", "link": "http://newyork.craigslist.org/brk/sub/4682429971.html", "lat": -1, "lng": -1, "email": "53bzp-4682429971@hous.craigslist.org"}, {"title": "Avenue Of The Americas, New York NY 10001", "price": "$70", "link": "http://newyork.craigslist.org/brk/sub/4682439663.html", "lat": -1, "lng": -1, "email": "3npsq-4682439663@hous.craigslist.org"}, {"title": "Gorgeous room in great area for female", "price": "$1200", "link": "http://newyork.craigslist.org/brk/sub/4698161639.html", "lat": -1, "lng": -1, "email": "nbd2t-4698161639@hous.craigslist.org"}, {"title": "HUGE 1br + Dressing room in a 2br Garden Duplex", "price": "$1500", "link": "http://newyork.craigslist.org/brk/sub/4698110107.html", "lat": "40.679955", "lng": "-73.955326", "email": "nwt4j-4698110107@hous.craigslist.org"}, {"title": "Comfortably Furnished 2 Bedroom Available Nov 1", "price": "$4800", "link": "http://newyork.craigslist.org/brk/sub/4689708054.html", "lat": "40.691133", "lng": "-73.993092", "email": "jh8tq-4689708054@hous.craigslist.org"}, {"title": "$800 Room/ December & Jan/ Bushswick", "price": "$800", "link": "http://newyork.craigslist.org/brk/sub/4698115917.html", "lat": "40.693041", "lng": "-73.924439", "email": "5v89j-4698115917@hous.craigslist.org"}, {"title": "RENT BIG ROOM FURNISHED", "price": "$900", "link": "http://newyork.craigslist.org/brk/sub/4698098496.html", "lat": "40.687515", "lng": "-73.926295", "email": "pieciopiecio@hotmail.it"}, {"title": "2 bedroom top floor apartment in 2 family home", "price": "$1600", "link": "http://newyork.craigslist.org/brk/sub/4698067582.html", "lat": -1, "lng": -1, "email": "khdmg-4698067582@hous.craigslist.org"}, {"title": "Great Room for Rent", "price": "", "link": "http://newyork.craigslist.org/brk/sub/4698053053.html", "lat": "40.699707", "lng": "-73.922582", "email": "2jzrw-4698053053@hous.craigslist.org"}, {"title": "Looking for a Temporary Tenant $150 per week(Furnished) ASAP", "price": "", "link": "http://newyork.craigslist.org/brk/sub/4692618776.html", "lat": "40.682764", "lng": "-73.935008", "email": "g27w2-4692618776@hous.craigslist.org"}, {"title": "\ud83c\udf20\u267b\ud83c\udf20MOVE IN BY THIS SUNDAY!  RENTALS READY TO SEE  NOW!", "price": "$1600", "link": "http://newyork.craigslist.org/brk/sub/4687781466.html", "lat": -1, "lng": -1, "email": "cdjw9-4687781466@hous.craigslist.org"}, {"title": "BEAUTIFUL STUDIO APARTMENT FOR RENT ", "price": "$2200", "link": "http://newyork.craigslist.org/brk/sub/4697976276.html", "lat": "40.668221", "lng": "-73.982298", "email": "w2nft-4697976276@hous.craigslist.org"}, {"title": "FURNISHED STUDIO , NEXT TO THE PARK !!!!", "price": "$2200", "link": "http://newyork.craigslist.org/brk/sub/4697999217.html", "lat": "40.668270", "lng": "-73.982213", "email": "4wmtg-4697999217@hous.craigslist.org"}, {"title": "1 BR Available in Large 2BR", "price": "$900", "link": "http://newyork.craigslist.org/brk/sub/4697998393.html", "lat": "40.672469", "lng": "-73.951721", "email": "p3rx8-4697998393@hous.craigslist.org"}, {"title": "1BR luxury bldg TERRACE POOL SAUNA GYM no fees", "price": "$3450", "link": "http://newyork.craigslist.org/brk/sub/4697969484.html", "lat": "40.718669", "lng": "-73.963492", "email": "8wh9n-4697969484@hous.craigslist.org"}, {"title": "Musicians great sublet blocks from the park minutes to the city ", "price": "$825", "link": "http://newyork.craigslist.org/brk/sub/4697915478.html", "lat": "40.647515", "lng": "-73.970518", "email": "vtdwr-4697915478@hous.craigslist.org"}, {"title": "separate sunny room available", "price": "$800", "link": "http://newyork.craigslist.org/brk/sub/4673871848.html", "lat": "40.577456", "lng": "-73.970604", "email": "kkwr3-4673871848@hous.craigslist.org"}, {"title": "Now! Furnished 1br avail in 3br apartment!", "price": "$450", "link": "http://newyork.craigslist.org/brk/sub/4697869094.html", "lat": -1, "lng": -1, "email": "jrfvt-4697869094@hous.craigslist.org"}, {"title": "OCT Sublet. Prvt Bathroom! Prvt Balcony!", "price": "$600", "link": "http://newyork.craigslist.org/brk/sub/4697862547.html", "lat": "40.670809", "lng": "-73.989680", "email": "jsantangeli@gmail.com"}, {"title": "Shared Rm for Girls-Models, Students, Actress's, Young Professionals", "price": "$1275", "link": "http://newyork.craigslist.org/brk/sub/4697816205.html", "lat": "40.719228", "lng": "-73.962897", "email": "nvqdf-4697816205@hous.craigslist.org"}, {"title": "Shared Room for Girls Only - Upscale Building", "price": "$1275", "link": "http://newyork.craigslist.org/brk/sub/4697812430.html", "lat": "40.719228", "lng": "-73.962897", "email": "5tz2f-4697812430@hous.craigslist.org"}, {"title": "Studio Apartment - Crown Heights", "price": "$1325", "link": "http://newyork.craigslist.org/brk/sub/4697791098.html", "lat": "40.676553", "lng": "-73.945541", "email": "ctzqz-4697791098@hous.craigslist.org"}, {"title": "Quintessential Park Slope Living!  ", "price": "$2700", "link": "http://newyork.craigslist.org/brk/sub/4682621941.html", "lat": "40.676277", "lng": "-73.973994", "email": "txpb5-4682621941@hous.craigslist.org"}, {"title": "Elegant Studio , Madison Ave", "price": "$1800", "link": "http://newyork.craigslist.org/brk/sub/4697657563.html", "lat": "40.737500", "lng": "-73.981300", "email": "r9w3t-4697657563@hous.craigslist.org"}, {"title": "Pocono Colonial 3 br. 4 sale cheaper than rent", "price": "", "link": "http://newyork.craigslist.org/brk/sub/4691376052.html", "lat": "41.215437", "lng": "-75.365969", "email": "mqn8j-4691376052@hous.craigslist.org"}, {"title": "1 Room in Williamsburg Duplex - Private bath", "price": "$1350", "link": "http://newyork.craigslist.org/brk/sub/4697768754.html", "lat": -1, "lng": -1, "email": "b9b3k-4697768754@hous.craigslist.org"}, {"title": "Furnished Room Available NOW In Quiet Household Month to Month $1200", "price": "$1200", "link": "http://newyork.craigslist.org/brk/sub/4697713431.html", "lat": "40.691556", "lng": "-73.930264", "email": "zgrbf-4697713431@hous.craigslist.org"}]
